{"lng": 60.678538, "lat": 56.842912, "subtype": "Rock", "poi_name": "Kamennie palatki", "poi_id": 9101, "type": "Natural"}
{"lng": 60.692927, "lat": 56.847335, "subtype": "Waterbody", "poi_name": "Shartash ozero", "poi_id": 9102, "type": "Natural"}
{"lng": 60.759548, "lat": 56.85564, "subtype": "Rock", "poi_name": "One more point", "poi_id": 9103, "type": "Natural"}
{"lng": 60.726486, "lat": 56.859641, "subtype": "Beach", "poi_name": "Local Beach", "poi_id": 9104, "type": "Natural"}
{"lng": -114.070241, "lat": 51.05552, "subtype": "Park", "poi_name": "Prince`s Island", "poi_id": 9201, "type": "Natural"}
{"lng": -114.111217, "lat": 51.105876, "subtype": "Park", "poi_name": "Nose Hill", "poi_id": 9202, "type": "Natural"}
{"lng": -114.219045, "lat": 51.100791, "subtype": "Park", "poi_name": "Baker Park", "poi_id": 9203, "type": "Natural"}
{"lng": -114.215201, "lat": 51.08295, "subtype": "Winter Sport Activity Park", "poi_name": "Canada Olimpic Park", "poi_id": 9204, "type": "Recreation"}
{"lng": 3.174488, "lat": 42.262312, "subtype": "Beach", "poi_name": "Roses City Beach", "poi_id": 9301, "type": "Natural"}
{"lng": 3.170584, "lat": 42.26558, "subtype": "Museum", "poi_name": "Roses Citadel", "poi_id": 9302, "type": "Historical"}
{"lng": 3.182242, "lat": 42.246668, "subtype": "Museum", "poi_name": "Trinity Castle", "poi_id": 9303, "type": "Historical"}
{"lng": 3.197926, "lat": 42.256068, "subtype": "Dolmen", "poi_name": "Dolmen Path (Start)", "poi_id": 9304, "type": "Historical"}
{"lng": "110", "lat": "50", "date_created": null, "date_updated": null, "subtype": "st", "poi_name": "testPoint", "type": "t", "poi_id": 2}
{"lng": "100", "poi_id": 3, "date_created": null, "date_updated": null, "subtype": "st", "poi_name": "TTTTTT", "lat": "56", "type": "t"}
