{"poi_id": 9101, "poi_name": "Kamennie palatki", "lat": 56.842912, "lng": 60.678538, "type": "Natural", "subtype": "Rock"}
{"poi_id": 9102, "poi_name": "Shartash ozero", "lat": 56.847335, "lng": 60.692927, "type": "Natural", "subtype": "Waterbody"}
{"poi_id": 9103, "poi_name": "One more point", "lat": 56.855640, "lng": 60.759548,  "type": "Natural", "subtype": "Rock"}
{"poi_id": 9104, "poi_name": "Local Beach", "lat": 56.859641, "lng": 60.726486, "type": "Natural", "subtype": "Beach"}
{"poi_id": 9201, "poi_name": "Prince`s Island", "lat": 51.055520, "lng": -114.070241, "type": "Natural", "subtype": "Park"}
{"poi_id": 9202, "poi_name": "Nose Hill", "lat": 51.105876, "lng": -114.111217, "type": "Natural", "subtype": "Park"}
{"poi_id": 9203, "poi_name": "Baker Park", "lat": 51.100791, "lng": -114.219045, "type": "Natural", "subtype": "Park"}
{"poi_id": 9204, "poi_name": "Canada Olimpic Park", "lat": 51.082950, "lng": -114.215201, "type": "Recreation", "subtype": "Winter Sport Activity Park"}
{"poi_id": 9301, "poi_name": "Roses City Beach", "lat": 42.262312,"lng": 3.174488, "type": "Natural", "subtype": "Beach"}
{"poi_id": 9302, "poi_name": "Roses Citadel", "lat": 42.265580, "lng": 3.170584, "type": "Historical", "subtype": "Museum"}
{"poi_id": 9303, "poi_name": "Trinity Castle", "lat": 42.246668, "lng": 3.182242, "type": "Historical", "subtype": "Museum"}
{"poi_id": 9304, "poi_name": "Dolmen Path (Start)", "lat": 42.256068, "lng": 3.197926, "type": "Historical", "subtype": "Dolmen"}
